{"Response":{"MetaInfo":{"Timestamp":"2019-08-11T17:19:05.218+0000","NextPageInformation":"2"},"View":[{"_type":"SearchResultsViewType","ViewId":0,"Result":[{"Relevance":1.0,"Distance":6.7,"MatchLevel":"houseNumber","MatchQuality":{"Country":1.0,"State":1.0,"County":1.0,"City":1.0,"District":1.0,"Street":[1.0],"HouseNumber":1.0,"PostalCode":1.0},"MatchType":"interpolated","Location":{"LocationId":"NT_PUa8.ENFwZAJBZqs19kH5C_5MD","LocationType":"point","DisplayPosition":{"Latitude":40.45087,"Longitude":-3.69118},"MapView":{"TopLeft":{"Latitude":40.4519942,"Longitude":-3.6926573},"BottomRight":{"Latitude":40.4497458,"Longitude":-3.6897027}},"Address":{"Label":"Paseo de la Castellana, 93, 28046 Madrid (Madrid), España","Country":"ESP","State":"Comunidad de Madrid","County":"Madrid","City":"Madrid","District":"Cuatro Caminos","Street":"Paseo de la Castellana","HouseNumber":"93","PostalCode":"28046","AdditionalData":[{"value":"ES","key":"Country2"},{"value":"España","key":"CountryName"},{"value":"Comunidad de Madrid","key":"StateName"},{"value":"Madrid","key":"CountyName"}]},"MapReference":{"ReferenceId":"837895715","Spot":0.15,"SideOfStreet":"left","CountryId":"20215059","StateId":"20226800","CountyId":"20226801","CityId":"20242802","AddressId":"588570892","RoadLinkId":"220692322"},"AdminInfo":{"TimeZoneOffset":"UTC+02:00","LocalTime":"2019-08-11T19:19:05+0200","Currency":"EUR","DrivingSide":"right","SystemOfMeasure":"metric"}}},{"Relevance":1.0,"Distance":12.9,"MatchLevel":"street","MatchQuality":{"Country":1.0,"State":1.0,"County":1.0,"City":1.0,"District":1.0,"PostalCode":1.0},"Location":{"LocationId":"NT_eCWRDSnGYNUH1orsCgx5QB_l_838744900_L","LocationType":"point","DisplayPosition":{"Latitude":40.4508998,"Longitude":-3.6913875},"MapView":{"TopLeft":{"Latitude":40.45133,"Longitude":-3.69142},"BottomRight":{"Latitude":40.45079,"Longitude":-3.69126}},"Address":{"Label":"28046 Madrid (Madrid), España","Country":"ESP","State":"Comunidad de Madrid","County":"Madrid","City":"Madrid","District":"Cuatro Caminos","PostalCode":"28046","AdditionalData":[{"value":"ES","key":"Country2"},{"value":"España","key":"CountryName"},{"value":"Comunidad de Madrid","key":"StateName"},{"value":"Madrid","key":"CountyName"}]},"MapReference":{"ReferenceId":"838744900","Spot":0.2,"SideOfStreet":"left","CountryId":"20215059","StateId":"20226800","CountyId":"20226801","CityId":"20242802"},"AdminInfo":{"TimeZoneOffset":"UTC+02:00","LocalTime":"2019-08-11T19:19:05+0200","Currency":"EUR","DrivingSide":"right","SystemOfMeasure":"metric"}}},{"Relevance":1.0,"Distance":19.3,"MatchLevel":"street","MatchQuality":{"Country":1.0,"State":1.0,"County":1.0,"City":1.0,"District":1.0,"PostalCode":1.0},"Location":{"LocationId":"NT_eCWRDSnGYNUH1orsCgx5QB_l_838744899_L","LocationType":"point","DisplayPosition":{"Latitude":40.45079,"Longitude":-3.69142},"MapView":{"TopLeft":{"Latitude":40.45079,"Longitude":-3.69142},"BottomRight":{"Latitude":40.45079,"Longitude":-3.69119}},"Address":{"Label":"28046 Madrid (Madrid), España","Country":"ESP","State":"Comunidad de Madrid","County":"Madrid","City":"Madrid","District":"Cuatro Caminos","PostalCode":"28046","AdditionalData":[{"value":"ES","key":"Country2"},{"value":"España","key":"CountryName"},{"value":"Comunidad de Madrid","key":"StateName"},{"value":"Madrid","key":"CountyName"}]},"MapReference":{"ReferenceId":"838744899","Spot":0.0,"SideOfStreet":"left","CountryId":"20215059","StateId":"20226800","CountyId":"20226801","CityId":"20242802"},"AdminInfo":{"TimeZoneOffset":"UTC+02:00","LocalTime":"2019-08-11T19:19:05+0200","Currency":"EUR","DrivingSide":"right","SystemOfMeasure":"metric"}}},{"Relevance":1.0,"Distance":36.5,"MatchLevel":"street","MatchQuality":{"Country":1.0,"State":1.0,"County":1.0,"City":1.0,"District":1.0,"Street":[1.0],"PostalCode":1.0},"Location":{"LocationId":"NT_tQZU0DF8YC2L2Z1j35mNkB_l_762474742_R","LocationType":"point","DisplayPosition":{"Latitude":40.4509918,"Longitude":-3.6919565},"MapView":{"TopLeft":{"Latitude":40.45139,"Longitude":-3.69198},"BottomRight":{"Latitude":40.45079,"Longitude":-3.69191}},"Address":{"Label":"Avenida Centrum, 28046 Madrid (Madrid), España","Country":"ESP","State":"Comunidad de Madrid","County":"Madrid","City":"Madrid","District":"Cuatro Caminos","Street":"Avenida Centrum","PostalCode":"28046","AdditionalData":[{"value":"ES","key":"Country2"},{"value":"España","key":"CountryName"},{"value":"Comunidad de Madrid","key":"StateName"},{"value":"Madrid","key":"CountyName"}]},"MapReference":{"ReferenceId":"762474742","Spot":0.34,"SideOfStreet":"right","CountryId":"20215059","StateId":"20226800","CountyId":"20226801","CityId":"20242802"},"AdminInfo":{"TimeZoneOffset":"UTC+02:00","LocalTime":"2019-08-11T19:19:05+0200","Currency":"EUR","DrivingSide":"right","SystemOfMeasure":"metric"}}},{"Relevance":1.0,"Distance":36.8,"MatchLevel":"street","MatchQuality":{"Country":1.0,"State":1.0,"County":1.0,"City":1.0,"District":1.0,"PostalCode":1.0},"Location":{"LocationId":"NT_eCWRDSnGYNUH1orsCgx5QB_l_779114928_L","LocationType":"point","DisplayPosition":{"Latitude":40.4509025,"Longitude":-3.6910983},"MapView":{"TopLeft":{"Latitude":40.45143,"Longitude":-3.69119},"BottomRight":{"Latitude":40.4499,"Longitude":-3.69105}},"Address":{"Label":"28046 Madrid (Madrid), España","Country":"ESP","State":"Comunidad de Madrid","County":"Madrid","City":"Madrid","District":"Cuatro Caminos","PostalCode":"28046","AdditionalData":[{"value":"ES","key":"Country2"},{"value":"España","key":"CountryName"},{"value":"Comunidad de Madrid","key":"StateName"},{"value":"Madrid","key":"CountyName"}]},"MapReference":{"ReferenceId":"779114928","Spot":0.66,"SideOfStreet":"left","CountryId":"20215059","StateId":"20226800","CountyId":"20226801","CityId":"20242802"},"AdminInfo":{"TimeZoneOffset":"UTC+02:00","LocalTime":"2019-08-11T19:19:05+0200","Currency":"EUR","DrivingSide":"right","SystemOfMeasure":"metric"}}},{"Relevance":1.0,"Distance":41.4,"MatchLevel":"street","MatchQuality":{"Country":1.0,"State":1.0,"County":1.0,"City":1.0,"District":1.0,"Street":[1.0],"PostalCode":1.0},"Location":{"LocationId":"NT_tQZU0DF8YC2L2Z1j35mNkB_l_591964816_R","LocationType":"point","DisplayPosition":{"Latitude":40.4509608,"Longitude":-3.6920192},"MapView":{"TopLeft":{"Latitude":40.4512,"Longitude":-3.69204},"BottomRight":{"Latitude":40.45086,"Longitude":-3.69201}},"Address":{"Label":"Avenida Centrum, 28046 Madrid (Madrid), España","Country":"ESP","State":"Comunidad de Madrid","County":"Madrid","City":"Madrid","District":"Cuatro Caminos","Street":"Avenida Centrum","PostalCode":"28046","AdditionalData":[{"value":"ES","key":"Country2"},{"value":"España","key":"CountryName"},{"value":"Comunidad de Madrid","key":"StateName"},{"value":"Madrid","key":"CountyName"}]},"MapReference":{"ReferenceId":"591964816","Spot":0.3,"SideOfStreet":"right","CountryId":"20215059","StateId":"20226800","CountyId":"20226801","CityId":"20242802"},"AdminInfo":{"TimeZoneOffset":"UTC+02:00","LocalTime":"2019-08-11T19:19:05+0200","Currency":"EUR","DrivingSide":"right","SystemOfMeasure":"metric"}}},{"Relevance":1.0,"Distance":41.7,"MatchLevel":"street","MatchQuality":{"Country":1.0,"State":1.0,"County":1.0,"City":1.0,"District":1.0,"Street":[1.0],"PostalCode":1.0},"Location":{"LocationId":"NT_tQZU0DF8YC2L2Z1j35mNkB_l_762474837_R","LocationType":"point","DisplayPosition":{"Latitude":40.45079,"Longitude":-3.69198},"MapView":{"TopLeft":{"Latitude":40.45079,"Longitude":-3.692},"BottomRight":{"Latitude":40.45038,"Longitude":-3.69198}},"Address":{"Label":"Avenida Centrum, 28046 Madrid (Madrid), España","Country":"ESP","State":"Comunidad de Madrid","County":"Madrid","City":"Madrid","District":"Cuatro Caminos","Street":"Avenida Centrum","PostalCode":"28046","AdditionalData":[{"value":"ES","key":"Country2"},{"value":"España","key":"CountryName"},{"value":"Comunidad de Madrid","key":"StateName"},{"value":"Madrid","key":"CountyName"}]},"MapReference":{"ReferenceId":"762474837","Spot":1.0,"SideOfStreet":"right","CountryId":"20215059","StateId":"20226800","CountyId":"20226801","CityId":"20242802"},"AdminInfo":{"TimeZoneOffset":"UTC+02:00","LocalTime":"2019-08-11T19:19:05+0200","Currency":"EUR","DrivingSide":"right","SystemOfMeasure":"metric"}}},{"Relevance":1.0,"Distance":41.7,"MatchLevel":"street","MatchQuality":{"Country":1.0,"State":1.0,"County":1.0,"City":1.0,"District":1.0,"Street":[1.0],"PostalCode":1.0},"Location":{"LocationId":"NT_dJs7M0escrLM88yQEwfTBB_l_591966542_R","LocationType":"point","DisplayPosition":{"Latitude":40.45079,"Longitude":-3.69198},"MapView":{"TopLeft":{"Latitude":40.45097,"Longitude":-3.69353},"BottomRight":{"Latitude":40.45079,"Longitude":-3.69198}},"Address":{"Label":"Túneles de Azca, 28020 Madrid (Madrid), España","Country":"ESP","State":"Comunidad de Madrid","County":"Madrid","City":"Madrid","District":"Cuatro Caminos","Street":"Túneles de Azca","PostalCode":"28020","AdditionalData":[{"value":"ES","key":"Country2"},{"value":"España","key":"CountryName"},{"value":"Comunidad de Madrid","key":"StateName"},{"value":"Madrid","key":"CountyName"}]},"MapReference":{"ReferenceId":"591966542","Spot":0.0,"SideOfStreet":"right","CountryId":"20215059","StateId":"20226800","CountyId":"20226801","CityId":"20242802"},"AdminInfo":{"TimeZoneOffset":"UTC+02:00","LocalTime":"2019-08-11T19:19:05+0200","Currency":"EUR","DrivingSide":"right","SystemOfMeasure":"metric"}}},{"Relevance":1.0,"Distance":43.9,"MatchLevel":"houseNumber","MatchQuality":{"Country":1.0,"State":1.0,"County":1.0,"City":1.0,"District":1.0,"Street":[1.0],"HouseNumber":1.0,"PostalCode":1.0},"MatchType":"interpolated","Location":{"LocationId":"NT_PUa8.ENFwZAJBZqs19kH5C_5ED","LocationType":"point","DisplayPosition":{"Latitude":40.45053,"Longitude":-3.69121},"MapView":{"TopLeft":{"Latitude":40.4516542,"Longitude":-3.6926873},"BottomRight":{"Latitude":40.4494058,"Longitude":-3.6897327}},"Address":{"Label":"Paseo de la Castellana, 91, 28046 Madrid (Madrid), España","Country":"ESP","State":"Comunidad de Madrid","County":"Madrid","City":"Madrid","District":"Cuatro Caminos","Street":"Paseo de la Castellana","HouseNumber":"91","PostalCode":"28046","AdditionalData":[{"value":"ES","key":"Country2"},{"value":"España","key":"CountryName"},{"value":"Comunidad de Madrid","key":"StateName"},{"value":"Madrid","key":"CountyName"}]},"MapReference":{"ReferenceId":"837895714","Spot":0.75,"SideOfStreet":"left","CountryId":"20215059","StateId":"20226800","CountyId":"20226801","CityId":"20242802","AddressId":"588644784","RoadLinkId":"220692321"},"AdminInfo":{"TimeZoneOffset":"UTC+02:00","LocalTime":"2019-08-11T19:19:05+0200","Currency":"EUR","DrivingSide":"right","SystemOfMeasure":"metric"}}},{"Relevance":1.0,"Distance":44.1,"MatchLevel":"street","MatchQuality":{"Country":1.0,"State":1.0,"County":1.0,"City":1.0,"District":1.0,"Street":[1.0],"PostalCode":1.0},"Location":{"LocationId":"NT_tQZU0DF8YC2L2Z1j35mNkB_l_76628530_R","LocationType":"point","DisplayPosition":{"Latitude":40.45086,"Longitude":-3.69204},"MapView":{"TopLeft":{"Latitude":40.45086,"Longitude":-3.69207},"BottomRight":{"Latitude":40.45075,"Longitude":-3.69204}},"Address":{"Label":"Avenida Centrum, 28046 Madrid (Madrid), España","Country":"ESP","State":"Comunidad de Madrid","County":"Madrid","City":"Madrid","District":"Cuatro Caminos","Street":"Avenida Centrum","PostalCode":"28046","AdditionalData":[{"value":"ES","key":"Country2"},{"value":"España","key":"CountryName"},{"value":"Comunidad de Madrid","key":"StateName"},{"value":"Madrid","key":"CountyName"}]},"MapReference":{"ReferenceId":"76628530","Spot":1.0,"SideOfStreet":"right","CountryId":"20215059","StateId":"20226800","CountyId":"20226801","CityId":"20242802"},"AdminInfo":{"TimeZoneOffset":"UTC+02:00","LocalTime":"2019-08-11T19:19:05+0200","Currency":"EUR","DrivingSide":"right","SystemOfMeasure":"metric"}}}]}]}}